City_ID,City,Latitude,Longitude,Max Temp,Humidity,Cloudiness,Wind Speed,Country,Date
0,daru,-9.0763,143.2092,27.66,83,86,2.51,PG,1744774756
1,vila franca do campo,37.7167,-25.4333,16.23,92,43,3.84,PT,1744774757
2,albany,42.6001,-73.9662,5.23,73,81,0.45,US,1744774759
3,taksimo,56.3444,114.8794,2.75,69,100,1.06,RU,1744774760
4,avarua,-21.2078,-159.775,27.03,69,75,4.12,CK,1744774761
5,adamstown,-25.066,-130.1015,24.57,85,1,4.93,PN,1744774762
6,villa gesell,-37.2639,-56.973,12.3,83,100,3.76,AR,1744774763
7,puerto natales,-51.7236,-72.4875,6.47,88,100,0.71,CL,1744774764
8,enewetak,11.3474,162.3373,27.48,80,100,8.03,MH,1744774765
9,longyearbyen,78.2186,15.6401,-15.09,78,20,3.6,SJ,1744774767
10,rundu,-17.9333,19.7667,18.13,77,10,2.24,NA,1744774768
11,dauphin,51.1494,-100.0502,6.08,65,100,5.66,CA,1744774769
12,bredasdorp,-34.5322,20.0403,13.74,93,0,1.1,ZA,1744774770
13,port-aux-francais,-49.35,70.2167,7.14,93,100,9.44,TF,1744774771
14,carnarvon,-24.8667,113.6333,26.64,57,0,8.33,AU,1744774772
15,yellowknife,62.456,-114.3525,2.29,69,100,3.6,CA,1744774774
16,cidreira,-30.1811,-50.2056,19.24,86,2,5.17,BR,1744774775
17,ushuaia,-54.8,-68.3,8.81,71,0,2.06,AR,1744774776
18,porto novo,6.4965,2.6036,27.23,82,99,3.25,BJ,1744774777
19,tura,25.5198,90.2201,30.92,42,1,2.17,IN,1744774778
20,blackmans bay,-43.0167,147.3167,18.74,55,100,1.79,AU,1744774781
21,labrador city,52.9463,-66.9114,-1.05,74,100,5.14,CA,1744774782
22,edinburgh of the seven seas,-37.0676,-12.3116,15.86,82,99,11.16,SH,1744774783
23,ilulissat,69.2167,-51.1,-7.99,73,75,1.54,GL,1744774784
24,barranca,-10.75,-77.7667,18.6,85,87,2.75,PE,1744774785
25,aasiaat,68.7098,-52.8699,-12.51,86,100,2.21,GL,1744774787
26,bethel,41.3712,-73.414,9.05,62,75,5.14,US,1744774788
27,penon blanco,24.7897,-104.0369,21.04,21,100,2.56,MX,1744774789
28,grytviken,-54.2811,-36.5092,0.35,74,72,5.67,GS,1744774790
29,invercargill,-46.4,168.35,15.57,71,0,2.24,NZ,1744774791
30,griffith,41.5284,-87.4237,4.91,84,40,0.0,US,1744774792
31,fada,7.25,4.0667,23.77,99,86,0.55,NG,1744774793
32,stanley,54.868,-1.6985,7.01,94,100,5.14,GB,1744774795
33,el porvenir,13.7617,-87.3458,25.92,69,84,2.53,HN,1744774796
34,ivins,37.1686,-113.6794,23.42,17,42,0.89,US,1744774797
35,gebeit,21.0667,36.3167,15.77,48,0,2.63,SD,1744774798
36,san sebastian de la gomera,28.0916,-17.1133,19.2,72,75,2.06,ES,1744774799
37,fuglafjordur,62.244,-6.814,4.3,80,34,1.59,FO,1744774800
38,masina,-4.3836,15.3914,25.19,83,75,3.09,CD,1744774802
39,dubbo,-32.25,148.6167,23.07,35,88,3.09,AU,1744774803
40,ust-nera,64.5667,143.2,-1.81,91,100,1.37,RU,1744774804
41,papatowai,-46.5619,169.4708,13.88,72,9,5.78,NZ,1744774805
42,greenville,35.6127,-77.3663,15.07,42,0,1.34,US,1744774806
43,hasaki,35.7333,140.8333,14.81,47,0,8.55,JP,1744774807
44,port elizabeth,-33.918,25.5701,16.29,99,100,1.54,ZA,1744774808
45,mar del plata,-38.0023,-57.5575,11.72,94,100,0.89,AR,1744774548
46,boa vista,2.8197,-60.6733,24.99,88,75,4.12,BR,1744774811
47,harper,4.375,-7.7169,26.25,86,98,2.83,LR,1744774812
48,moissala,8.3404,17.7663,27.11,55,83,1.65,TD,1744774813
49,labytnangi,66.6572,66.4183,-7.12,87,76,2.2,RU,1744774814
50,ribeira grande,38.5167,-28.7,15.99,96,9,7.15,PT,1744774815
51,ternate,0.8,127.4,29.21,70,82,1.35,ID,1744774817
52,roshchino,60.2519,29.6085,5.72,78,7,3.02,RU,1744774819
53,waitangi,-43.9535,-176.5597,12.68,78,99,0.89,NZ,1744774820
54,teguise,29.0605,-13.564,15.12,63,20,5.14,ES,1744774821
55,luanda,-8.8368,13.2343,26.0,89,75,1.03,AO,1744774674
56,atafu village,-8.5421,-172.5159,28.77,73,40,1.6,TK,1744774824
57,flying fish cove,-10.4217,105.6791,28.82,83,75,4.63,CX,1744774825
58,jamestown,42.097,-79.2353,1.8,91,100,8.23,US,1744774826
59,tiksi,71.6872,128.8694,-8.93,83,30,2.44,RU,1744774827
60,srednebelaya,50.6594,128.0106,7.21,25,1,5.07,RU,1744774828
61,pelabuhanratu,-6.9875,106.5514,30.18,71,50,1.97,ID,1744774829
62,torit,4.4133,32.5678,21.62,91,97,2.35,SS,1744774830
63,sequim,48.0795,-123.1018,11.17,83,96,1.34,US,1744774832
64,udachny,66.4167,112.4,-7.65,73,42,10.02,RU,1744774833
65,howard springs,-12.497,131.047,33.32,74,99,3.78,AU,1744774835
66,puerto baquerizo moreno,-0.9,-89.6,25.47,86,96,3.89,EC,1744774836
67,shingu,33.7333,135.9833,18.99,39,3,4.44,JP,1744774838
68,hithadhoo,-0.6,73.0833,28.94,72,89,6.35,MV,1744774839
69,hamilton,39.1834,-84.5333,9.36,65,0,4.63,US,1744774840
70,constantia,44.1833,28.65,8.38,80,97,4.47,RO,1744774841
71,qaqortoq,60.7167,-46.0333,-4.11,70,100,3.2,GL,1744774842
72,papao,-17.75,-149.55,28.82,76,99,5.15,PF,1744774843
73,egilsstadir,65.2653,-14.3948,0.95,93,100,2.06,IS,1744774844
74,maragogi,-9.0122,-35.2225,24.48,85,5,1.13,BR,1744774846
75,whitehorse,60.7161,-135.0538,6.43,33,20,5.14,CA,1744774847
76,mil'kovo,55.6078,37.7956,9.06,73,93,0.83,RU,1744774848
77,afif,23.9065,42.9172,20.1,20,0,3.66,SA,1744774850
78,kavieng,-2.5744,150.7967,29.42,71,48,4.79,PG,1744774851
79,dzuunharaa,48.8523,106.4579,6.94,38,99,4.08,MN,1744774852
80,arraial do cabo,-22.9661,-42.0278,23.88,82,98,1.49,BR,1744774854
81,barra de santo antonio,-9.4047,-35.5072,25.54,80,10,3.05,BR,1744774855
82,hobyo,5.3505,48.5268,29.07,63,100,5.07,SO,1744774856
83,fiumicino-isola sacra,41.7675,12.2291,15.92,43,96,3.61,IT,1744774857
84,hermanus,-34.4187,19.2345,12.67,90,0,3.34,ZA,1744774858
85,punta arenas,-53.15,-70.9167,8.06,87,75,5.14,CL,1744774859
86,malvan,16.0667,73.4667,29.44,61,2,2.24,IN,1744774861
87,skole,49.0372,23.5135,9.23,90,95,3.29,UA,1744774862
88,kailua-kona,19.6406,-155.9956,25.15,89,75,0.45,US,1744774863
89,nova sintra,14.8667,-24.7167,22.53,75,29,7.97,CV,1744774864
90,bonthe,7.5264,-12.505,24.33,88,98,1.58,SL,1744774865
91,awjilah,29.1081,21.2869,18.33,20,0,5.3,LY,1744774866
92,tazovsky,67.4667,78.7,-5.6,94,95,4.54,RU,1744774868
93,ati,13.2154,18.3353,25.51,14,6,4.32,TD,1744774869
94,nadym,65.5333,72.5167,-5.31,88,89,7.6,RU,1744774870
95,vigan,17.5747,120.3869,34.4,76,28,4.74,PH,1744774871
96,pimentel,-6.8367,-79.9342,20.16,83,0,9.77,PE,1744774872
97,thompson,55.7435,-97.8558,2.09,51,100,1.54,CA,1744774873
98,sitka,57.0531,-135.33,6.94,70,75,2.06,US,1744774875
99,armacao de buzios,-22.7469,-41.8817,22.94,86,100,0.67,BR,1744774876
100,saldanha,-33.0117,17.9442,13.03,83,0,4.66,ZA,1744774878
101,loango,-4.6719,11.8312,25.35,92,100,2.04,CG,1744774879
102,nova vicosa,-17.8919,-39.3719,25.43,80,22,2.48,BR,1744774880
103,puerto ayora,-0.7393,-90.3518,26.42,96,100,3.22,EC,1744774882
104,owen sound,44.5672,-80.9435,0.74,94,100,3.13,CA,1744774883
105,anadyr,64.75,177.4833,-7.72,85,75,3.0,RU,1744774763
106,barcelos,41.5388,-8.6151,5.97,92,60,2.1,PT,1744774885
107,college,64.8569,-147.8028,8.99,40,40,1.54,US,1744774886
108,yuzhno-kurilsk,44.0306,145.8556,3.0,99,100,4.64,RU,1744774887
109,nar'yan-mar,67.6713,53.087,-4.42,83,97,7.17,RU,1744774888
110,mount gambier,-37.8333,140.7667,30.28,24,10,4.61,AU,1744774852
111,port saint john's,-31.6229,29.5448,16.9,90,100,2.75,ZA,1744774891
112,bilibino,68.0546,166.4372,-3.07,80,98,1.1,RU,1744774892
113,haiku-pauwela,20.9219,-156.3051,25.7,75,40,8.05,US,1744774893
114,orkney,-26.9802,26.6727,12.22,92,22,0.86,ZA,1744774894
115,vilyuchinsk,52.9306,158.4028,3.15,99,100,2.09,RU,1744774895
116,kalkaman,51.9525,76.0211,8.02,53,18,4.5,KZ,1744774897
117,saurimo,-9.6608,20.3916,17.9,98,100,1.25,AO,1744774898
118,iskateley,67.6803,53.1512,-4.37,83,97,7.15,RU,1744774899
119,san patricio,28.017,-97.5169,20.97,83,85,3.48,US,1744774900
120,gustavsberg,59.3268,18.3898,8.43,82,100,3.3,SE,1744774901
121,alesund,62.4723,6.1549,9.08,81,100,5.14,NO,1744774902
122,sur,22.5667,59.5289,31.51,43,5,3.39,OM,1744774903
123,saudarkrokur,65.7461,-19.6394,-0.05,83,45,6.07,IS,1744774905
124,jianshui,23.6363,102.8264,26.7,48,96,5.89,CN,1744774906
125,kunming,25.0389,102.7183,21.96,40,40,9.0,CN,1744774907
126,coracao de jesus,-16.6853,-44.365,19.46,95,76,1.76,BR,1744774908
127,margaret river,-33.95,115.0667,22.99,43,0,2.81,AU,1744774909
128,tuburan,6.6439,122.2736,28.95,75,86,2.63,PH,1744774912
129,brokopondo,4.75,-55.1667,24.69,90,100,2.61,SR,1744774913
130,quinte west,44.1834,-77.5662,2.74,75,100,6.17,CA,1744774914
131,iqaluit,63.7506,-68.5145,-9.15,86,100,0.0,CA,1744774915
132,chhatarpur,24.9,79.6,33.46,21,0,1.76,IN,1744774916
133,abu,24.6,72.7,33.09,32,0,2.15,IN,1744774917
134,codrington,-38.2667,141.9667,26.92,39,26,5.99,AU,1744774919
135,hawaiian paradise park,19.5933,-154.9731,25.73,69,0,7.2,US,1744774920
136,dudinka,69.4058,86.1778,-8.45,86,54,5.38,RU,1744774921
137,wewak,-3.5534,143.6268,29.17,77,18,4.36,PG,1744774922
138,petropavlovsk-kamchatsky,53.0452,158.6483,2.33,87,100,4.0,RU,1744774923
139,horta,38.5333,-28.6333,15.57,96,24,6.26,PT,1744774924
140,kayangel,8.0823,134.7173,28.6,79,54,7.11,PW,1744774925
141,kirakira,-10.4544,161.9205,27.89,83,92,4.57,SB,1744774927
142,lompoc,34.6391,-120.4579,13.4,72,0,2.06,US,1744774928
143,whakatane,-37.9585,176.9854,17.63,76,99,5.49,NZ,1744774929
144,san antonio de pale,-1.4014,5.6325,27.21,83,100,4.63,GQ,1744774930
145,tahoua,14.8888,5.2692,26.89,11,2,2.37,NE,1744774931
146,kandava,57.0409,22.7747,9.58,86,97,3.92,LV,1744774932
147,urangan,-25.3,152.9,24.04,66,25,8.35,AU,1744774934
148,port alfred,-33.5906,26.891,15.1,98,97,1.69,ZA,1744774935
149,newman,37.3138,-121.0208,13.92,72,100,2.05,US,1744774936
150,fale old settlement,-9.3852,-171.2468,28.88,71,19,0.49,TK,1744774937
151,la passe,45.5549,-0.8967,7.99,86,100,2.47,FR,1744774938
152,richards bay,-28.783,32.0377,19.37,95,100,1.07,ZA,1744774939
153,rhinelander,45.6366,-89.4121,1.09,60,100,2.57,US,1744774927
154,west island,-12.1568,96.8225,29.99,74,40,6.17,CC,1744774942
155,keflavik,64.0049,-22.5624,1.24,69,20,11.32,IS,1744774943
156,isafjordur,66.0755,-23.124,-3.75,86,88,7.44,IS,1744774944
157,khandyga,62.6667,135.6,-2.07,78,61,0.87,RU,1744774945
158,taro,-8.3862,115.28,29.68,53,32,1.46,ID,1744774946
159,verkhnevilyuysk,63.4453,120.3167,-0.45,100,100,2.68,RU,1744774947
160,talnakh,69.4865,88.3972,-8.92,82,59,3.38,RU,1744774948
161,yaren,-0.5472,166.916,28.09,80,30,6.28,NR,1744774950
162,abepura,-2.6333,140.5833,25.45,100,40,2.06,ID,1744774952
163,alice springs,-23.7,133.8833,28.75,23,75,8.23,AU,1744774953
164,certeze,47.9,23.4667,13.43,84,96,2.06,RO,1744774954
165,serhiyivka,46.0272,30.3768,9.56,74,100,3.34,UA,1744774956
166,san luis de la loma,17.2706,-100.8939,24.64,57,4,1.48,MX,1744774957
167,naze,28.3667,129.4833,22.51,50,100,4.51,JP,1744774958
168,mosjoen,65.836,13.1908,-0.71,93,40,1.03,NO,1744774959
169,port mathurin,-19.6833,63.4167,27.12,71,99,7.81,MU,1744774960
170,rasht,37.2808,49.5832,11.9,100,75,0.0,IR,1744774961
171,al kharijah,25.4514,30.5464,17.26,34,7,3.18,EG,1744774963
172,west bay,19.3667,-81.4167,25.04,83,20,2.06,KY,1744774964
173,hadibu,12.65,54.0333,27.34,59,73,0.79,YE,1744774965
174,jalai nur,49.45,117.7,14.56,30,56,2.75,CN,1744774966
175,pisco,-13.7,-76.2167,19.03,77,0,4.12,PE,1744774967
176,lubango,-14.9172,13.4925,16.08,85,23,1.19,AO,1744774968
177,mezhdurechensk,53.6942,88.0603,8.29,72,93,0.59,RU,1744774969
178,acarau,-2.8856,-40.12,24.99,84,0,3.37,BR,1744774971
179,vernon,50.2581,-119.2691,13.74,44,52,0.0,CA,1744774972
180,st. john's,47.5649,-52.7093,4.98,95,75,5.14,CA,1744774973
181,mount isa,-20.7333,139.5,29.87,42,40,5.14,AU,1744774974
182,lorengau,-2.0226,147.2712,29.65,70,86,4.08,PG,1744774975
183,kawalu,-7.3817,108.2082,30.7,65,97,1.9,ID,1744774976
184,strugi-krasnyye,58.2675,29.1114,8.3,87,13,2.9,RU,1744774977
185,sao joao da barra,-21.6403,-41.0511,23.59,83,97,2.16,BR,1744774979
186,colonia,50.9333,6.95,11.64,92,20,1.03,DE,1744774980
187,xiazhuang,34.9161,118.6389,27.99,32,1,8.83,CN,1744774981
188,lebu,-37.6167,-73.65,10.67,91,47,3.34,CL,1744774982
189,priargunsk,50.3691,119.1012,14.69,28,53,3.75,RU,1744774983
190,menongue,-14.6585,17.691,15.95,94,91,1.38,AO,1744774984
191,kudat,6.8837,116.8477,30.16,79,20,2.68,MY,1744774986
192,indianola,41.3581,-93.5574,9.38,36,0,0.45,US,1744774987
193,la'ie,21.6477,-157.9253,26.64,76,28,2.24,US,1744774988
194,revda,56.801,59.9303,7.51,77,99,7.28,RU,1744774989
195,mizan teferi,6.9833,35.5833,16.24,91,100,1.51,ET,1744774990
196,padang,-0.9492,100.3543,28.03,73,81,2.48,ID,1744774991
197,guerrero negro,27.9769,-114.0611,14.68,75,0,6.05,MX,1744774992
198,hiratacho,35.4333,132.8167,15.98,59,20,7.2,JP,1744774994
199,praia da vitoria,38.7333,-27.0667,17.14,82,40,4.65,PT,1744774995
200,rusape,-18.5278,32.1284,15.29,93,98,0.97,ZW,1744774996
201,al bawiti,28.3492,28.8659,14.52,53,0,3.34,EG,1744774997
202,taco pozo,-25.6167,-63.2833,22.41,68,100,2.02,AR,1744774998
203,magdagachi,53.45,125.8,7.67,34,80,0.76,RU,1744774999
204,oncativo,-31.9135,-63.682,15.24,80,95,2.44,AR,1744775001
205,haimen,23.1935,116.6142,24.26,58,62,3.58,CN,1744775003
206,kapuskasing,49.4169,-82.4331,-2.0,86,100,9.26,CA,1744775004
207,turaif,31.6725,38.6637,7.14,57,0,4.12,SA,1744775005
208,fisterra,42.9049,-9.2629,11.74,74,80,9.21,ES,1744775006
209,waingapu,-9.6567,120.2641,30.73,68,65,5.4,ID,1744775008
210,cannonvale,-20.2833,148.7,24.66,64,0,6.61,AU,1744775009
211,san-pedro,4.7485,-6.6363,24.82,93,88,2.22,CI,1744775010
212,kramators'k,48.723,37.5563,11.51,60,80,1.85,UA,1744775011
213,tarakan,3.3,117.6333,29.72,74,40,3.09,ID,1744775012
214,karratha,-20.7377,116.8463,35.95,29,15,3.26,AU,1744775013
215,ma'rib,15.4591,45.3253,24.75,39,6,1.64,YE,1744775015
216,la villa del rosario,10.3258,-72.3134,28.22,69,40,6.2,VE,1744775016
217,georgetown,5.4112,100.3354,26.97,89,40,1.54,MY,1744775017
218,san fernando de apure,7.8878,-67.4724,29.86,40,55,2.4,VE,1744775018
219,port augusta,-32.5,137.7667,31.33,24,1,2.23,AU,1744775019
220,badger,64.8,-147.5333,8.95,40,40,1.54,US,1744775020
221,holualoa,19.6228,-155.9522,23.08,87,80,0.45,US,1744775021
222,yola,9.2,12.4833,30.73,29,98,1.56,NG,1744775023
223,dalandzadgad,43.5708,104.425,12.9,38,100,8.68,MN,1744775024
224,callao,-12.0667,-77.15,20.95,88,0,4.63,PE,1744775026
225,ruidoso,33.3317,-105.673,10.08,62,0,5.14,US,1744775027
226,tucuma,-0.1833,-50.05,24.63,89,4,2.3,BR,1744775028
227,mugia,43.1041,-9.2179,8.28,78,88,8.87,ES,1744775029
228,dryden,49.7833,-92.7503,1.16,44,20,0.0,CA,1744775031
229,mossel bay,-34.1831,22.146,11.96,83,50,1.72,ZA,1744775032
230,el granada,37.5027,-122.4694,13.9,77,20,6.69,US,1744774861
231,port lincoln,-34.7333,135.8667,27.72,40,38,6.42,AU,1744775034
232,lihue,21.9789,-159.3672,25.77,65,20,5.14,US,1744775035
233,antsiranana,-12.2787,49.2917,24.42,88,20,3.09,MG,1744775036
234,gordonvale,-17.0936,145.7842,28.88,65,75,3.12,AU,1744775037
235,inarajan village,13.2736,144.7484,31.54,79,58,7.39,GU,1744775039
236,kingston,17.997,-76.7936,24.53,88,75,2.06,JM,1744775040
237,huehuetenango,15.3197,-91.4708,18.34,63,100,4.12,GT,1744775041
238,port macquarie,-31.4333,152.9167,23.37,61,48,3.13,AU,1744775042
239,kourou,5.1552,-52.6478,24.14,95,83,1.66,GF,1744775043
240,madalena,41.2162,-8.3345,7.32,98,48,2.09,PT,1744775046
241,nova xavantina,-14.6667,-52.35,23.1,94,100,0.58,BR,1744775047
242,utrik,11.2278,169.8474,26.94,74,96,8.5,MH,1744775048
243,aykhal,66.0,111.5,-9.03,81,37,10.73,RU,1744775049
244,villa dolores,-31.9459,-65.1896,19.19,68,97,0.77,AR,1744775050
245,walbrzych,50.7714,16.2843,12.81,93,100,3.05,PL,1744775052
246,turkmenbasy,40.0222,52.9552,13.43,94,100,6.17,TM,1744775053
247,olonkinbyen,70.9221,-8.7187,-4.26,63,36,5.91,SJ,1744775054
248,wailua homesteads,22.0669,-159.378,25.44,82,20,5.14,US,1744775055
249,ulladulla,-35.35,150.4667,22.17,53,30,4.06,AU,1744775056
250,salalah,17.0151,54.0924,27.05,83,20,1.03,OM,1744775057
251,jiuquan,39.7432,98.5174,20.58,17,70,7.03,CN,1744775058
252,gadzhiyevo,69.2551,33.3362,-5.89,88,100,3.01,RU,1744775060
253,east london,-33.0153,27.9116,16.52,94,75,3.09,ZA,1744775061
254,sinabang,2.4803,96.3801,26.63,84,99,1.88,ID,1744775062
255,francistown,-21.17,27.5079,18.3,85,91,3.44,BW,1744775063
256,kuttampuzha,10.1511,76.7339,29.45,63,1,0.89,IN,1744775064
257,weno,7.4515,151.8468,30.97,70,75,2.06,FM,1744775065
258,tazacorte,28.629,-17.9293,18.54,84,100,4.12,ES,1744775067
259,cottage grove,44.8277,-92.9438,7.98,52,0,2.57,US,1744775069
260,acapulco de juarez,16.8634,-99.8901,27.9,61,40,2.57,MX,1744775070
261,katsuura,35.1333,140.3,15.42,51,0,9.64,JP,1744775071
262,sovetskaya gavan',48.9723,140.2878,4.33,85,100,6.17,RU,1744775072
263,fuyang,32.9,115.8167,30.05,32,41,9.15,CN,1744775074
264,terenos,-20.4422,-54.8603,22.84,100,75,2.06,BR,1744775076
265,mirny,62.5353,113.9611,-4.88,70,16,6.13,RU,1744775077
266,midvagur,62.0511,-7.1939,2.46,87,40,1.03,FO,1744775078
267,lerwick,60.1545,-1.1494,7.95,90,100,4.88,GB,1744775080
268,uturoa,-16.7333,-151.4333,28.24,75,52,3.17,PF,1744775081
269,gisborne,-38.6533,178.0042,16.74,85,100,8.23,NZ,1744775082
270,ruiz,21.95,-105.15,21.69,82,100,0.64,MX,1744775083
271,inhambane,-23.865,35.3833,23.46,82,18,1.34,MZ,1744775084
272,oneonta,42.4529,-75.0638,3.4,82,83,2.68,US,1744775085
273,kiunga,-6.1219,141.2906,32.78,54,88,1.47,PG,1744775086
274,novyy urgal,51.0736,132.5642,5.35,54,100,2.44,RU,1744775088
275,chonchi,-42.6128,-73.8092,11.18,96,100,2.54,CL,1744775089
276,le puy-en-velay,45.0437,3.8852,6.39,97,100,2.4,FR,1744775090
277,shenkursk,62.1091,42.896,0.25,83,60,3.56,RU,1744775091
278,uige,-7.6087,15.0613,20.39,97,100,1.24,AO,1744775092
279,nchelenge,-9.3451,28.734,20.07,87,100,2.28,ZM,1744775093
280,ambositra,-20.5167,47.25,15.9,94,37,0.8,MG,1744775094
281,yarmouth,41.7057,-70.2286,10.03,74,0,7.6,US,1744775096
282,ancud,-41.8697,-73.8203,11.1,92,100,5.39,CL,1744775097
283,tolanaro,-25.0319,46.9987,23.89,89,18,3.69,MG,1744775098
284,patong,7.8961,98.2966,26.08,85,100,4.6,TH,1744775099
285,vuktyl,63.8567,57.3094,-2.37,76,100,6.91,RU,1744775100
286,cascais,38.6979,-9.4215,12.25,75,30,5.94,PT,1744775103
287,kruisfontein,-34.0033,24.7314,15.13,73,82,0.33,ZA,1744775104
288,faya-largeau,17.9257,19.1043,23.89,14,0,5.89,TD,1744775106
289,childress,34.4264,-100.204,14.14,41,0,3.6,US,1744775107
290,queenstown,-31.8976,26.8753,9.53,94,76,0.77,ZA,1744774746
291,kormilovka,55.0026,74.1028,7.83,44,58,7.83,RU,1744775110
292,al ghayzah,16.2079,52.176,27.61,74,56,0.79,YE,1744775111
293,gardez,33.5974,69.2259,18.51,31,5,0.66,AF,1744775112
294,jega,12.2175,4.3792,31.41,27,76,2.27,NG,1744775113
295,lib,8.3122,167.3766,27.5,81,98,9.3,MH,1744775114
296,novodvinsk,64.4165,40.8122,-2.14,87,55,2.88,RU,1744774999
297,loch garman,52.3342,-6.4575,6.05,98,100,8.49,IE,1744775117
298,leh,34.1667,77.5833,-3.55,48,0,1.36,IN,1744775118
299,saint-denis,48.9167,2.3333,9.56,76,0,3.09,FR,1744775119
300,luang prabang,19.8856,102.1347,27.98,69,75,1.03,LA,1744775120
301,talas,38.6908,35.5538,-0.63,93,0,0.51,TR,1744775121
302,malango,-2.9627,119.9001,24.39,82,100,0.52,ID,1744775122
303,lagoa,39.05,-27.9833,15.29,90,0,9.06,PT,1744775123
304,piti village,13.4626,144.6933,31.49,69,40,7.72,GU,1744775125
305,kenai,60.5544,-151.2583,7.05,53,100,4.63,US,1744775126
306,wanning,18.8003,110.3967,28.44,42,14,3.71,CN,1744775127
307,aljezur,37.3191,-8.8033,10.23,75,51,4.69,PT,1744775128
308,changnyeong,35.5415,128.4951,21.67,30,0,1.54,KR,1744775129
309,bulawayo,-20.15,28.5833,15.54,95,7,2.81,ZW,1744775130
310,nemuro,43.3236,145.575,3.29,88,100,9.4,JP,1744774885
311,port douglas,-16.4833,145.4667,27.0,64,48,6.93,AU,1744775133
312,abhar,36.1468,49.218,5.44,55,92,8.33,IR,1744775134
313,baicheng,45.6167,122.8167,13.07,30,79,4.19,CN,1744775135
314,pandan,14.0453,124.1694,30.26,62,92,2.63,PH,1744775136
315,saipan,15.1355,145.701,31.39,74,20,7.72,MP,1744775137
316,brookings,44.3114,-96.7984,7.88,43,0,4.14,US,1744774858
317,kuqa,41.7278,82.9364,20.92,16,99,6.56,CN,1744775140
318,shache,38.4167,77.2406,24.7,20,41,3.3,CN,1744775141
319,menaka,15.9182,2.4022,27.45,8,31,1.71,ML,1744775142
320,valparaiso,-33.0393,-71.6273,10.8,87,0,1.54,CL,1744775143
321,soe,-9.8607,124.284,26.48,80,46,1.0,ID,1744775144
322,hinis,39.3606,41.7022,-1.8,86,71,3.13,TR,1744775145
323,arkhangel'sk,64.5401,40.5433,-1.94,93,0,3.0,RU,1744775146
324,tofol,5.3248,163.0078,30.88,70,75,7.72,FM,1744775148
325,salekhard,66.53,66.6019,-5.91,89,94,1.91,RU,1744775149
326,saint-philippe,-21.3585,55.7679,26.24,81,42,4.7,RE,1744775150
327,al qadarif,14.0349,35.3834,26.05,32,10,4.09,SD,1744775151
328,candido mendes,-1.4467,-45.7167,23.72,96,6,0.33,BR,1744775152
329,susuman,62.7833,148.1667,0.64,88,100,3.57,RU,1744775153
330,sandnessjoen,66.0217,12.6316,6.06,61,75,2.06,NO,1744775154
331,carutapera,-1.195,-46.02,24.91,90,1,2.04,BR,1744775156
332,konarka,19.9,86.1167,30.97,60,1,4.24,IN,1744775157
333,manay,7.215,126.5397,27.11,83,100,2.7,PH,1744775158
334,mitu,1.1983,-70.1733,23.14,97,100,1.02,CO,1744775160
335,coahuayana de hidalgo,18.7,-103.6583,20.77,77,89,1.12,MX,1744775162
336,saint croix,17.7397,-64.7388,25.25,81,40,4.63,VI,1744775163
337,cill airne,52.05,-9.5167,3.04,78,99,0.74,IE,1744775164
338,bengkulu,-3.8004,102.2655,28.54,72,64,4.17,ID,1744775165
339,smithers,54.7804,-127.1743,6.18,39,40,3.6,CA,1744775103
340,essaouira,31.5125,-9.77,13.72,82,20,3.6,MA,1744775167
341,cedeira,43.6797,-8.0209,7.76,93,79,7.31,ES,1744775169
342,nunkini,20.3333,-90.1833,23.14,68,4,2.71,MX,1744775170
343,kuta,-8.7233,115.1723,30.97,74,20,5.14,ID,1744775171
344,sirre,8.3167,39.4833,17.81,82,95,2.18,ET,1744775172
345,biskupiec,53.8647,20.9569,10.72,93,100,5.81,PL,1744775173
346,yumbel,-37.0833,-72.5667,7.78,95,11,0.98,CL,1744775174
347,seybaplaya,19.65,-90.6667,24.7,63,15,7.96,MX,1744775175
348,akureyri,65.6835,-18.0878,-0.04,93,100,7.2,IS,1744775177
349,fort mcmurray,56.7268,-111.381,6.77,49,100,10.29,CA,1744775052
350,pochinok,54.4068,32.4407,7.12,75,84,3.37,RU,1744775179
351,mo i rana,66.3128,14.1428,-0.74,93,98,2.24,NO,1744775180
352,palu,-0.8917,119.8707,28.05,81,100,1.15,ID,1744775113
353,island harbour,50.724,-1.2758,8.89,79,95,5.81,GB,1744775182
354,igrim,63.1906,64.4162,2.05,96,100,4.85,RU,1744775184
355,arvayheer,46.2639,102.775,8.11,20,100,8.28,MN,1744775185
356,berezovyy,51.6667,135.7,4.6,66,100,2.87,RU,1744775186
357,jimena de la frontera,36.4352,-5.4539,7.94,92,0,2.27,ES,1744775187
358,kununurra,-15.7667,128.7333,34.99,38,41,3.09,AU,1744775188
359,namibe,-15.1961,12.1522,23.12,86,18,2.16,AO,1744775189
360,sampit,-2.5333,112.95,33.99,53,66,0.5,ID,1744775191
361,massawa,15.6097,39.45,25.3,62,12,2.88,ER,1744775192
362,idaho falls,43.4666,-112.0341,13.89,28,88,2.24,US,1744775193
363,opuwo,-18.0607,13.84,21.17,60,55,1.33,NA,1744775194
364,mumford,5.2618,-0.759,26.28,88,100,4.23,GH,1744775195
365,ban phai,16.06,102.731,32.83,46,100,1.82,TH,1744775196
366,gusinoozyorsk,51.2833,106.5,6.92,40,4,5.65,RU,1744775197
367,aklera,24.4167,76.5667,34.27,20,0,4.46,IN,1744775199
368,pama,11.2497,0.7075,30.74,46,28,4.29,BF,1744775200
369,zahirabad,17.6833,77.6167,30.2,43,72,6.03,IN,1744775201
370,coquimbo,-29.9533,-71.3436,12.85,94,0,1.03,CL,1744775202
371,seven pagodas,12.6264,80.1722,30.91,67,7,5.25,IN,1744775203
372,yarovoye,52.9273,78.58,7.41,51,16,3.7,RU,1744775205
373,bandar abbas,27.1865,56.2808,27.99,61,0,1.03,IR,1744775207
374,dickinson,29.4608,-95.0513,22.97,74,20,2.57,US,1744775208
375,asbe teferi,9.0833,40.8667,17.48,85,99,1.4,ET,1744775209
376,high river,50.5834,-113.8687,6.84,67,95,8.74,CA,1744775210
377,isangel,-19.55,169.2667,31.06,70,75,4.12,VU,1744775211
378,formosa do rio preto,-11.0483,-45.1931,22.35,84,28,1.13,BR,1744775212
379,sullivan,36.5168,-82.5332,11.43,40,40,6.17,US,1744775214
380,ndende,-2.4008,11.3581,23.39,98,100,0.19,GA,1744775215
381,jayapura,-2.5333,140.7,26.66,77,58,2.44,ID,1744775216
382,ratnagiri,16.9833,73.3,30.66,50,4,4.04,IN,1744775217
383,camocim,-2.9022,-40.8411,24.5,85,1,3.0,BR,1744775218
384,polyarnyy,69.1989,33.4478,-5.53,86,100,3.25,RU,1744775219
385,martin,27.0837,-80.4164,22.96,77,8,3.5,US,1744775221
386,livingston,55.9029,-3.5226,7.2,83,100,2.57,GB,1744775222
387,kissidougou,9.1848,-10.0999,21.8,92,70,1.39,GN,1744775224
388,cold lake,54.4502,-110.2017,6.97,29,40,4.12,CA,1744775176
389,datong,40.0936,113.2914,23.12,13,51,5.93,CN,1744775226
390,presque isle,46.6811,-68.0159,5.28,92,100,2.06,US,1744775227
391,valkeakoski,61.2642,24.0312,6.26,74,11,3.07,FI,1744775229
392,troitsko-pechorsk,62.7084,56.1964,-1.17,95,100,6.23,RU,1744775230
393,bodo,67.28,14.405,7.02,57,0,7.72,NO,1744775231
394,darwin,-12.4611,130.8418,31.99,55,75,3.6,AU,1744775207
395,lagos,6.5833,3.75,26.63,88,88,2.51,NG,1744775233
396,roma,43.2128,-75.4557,3.08,83,100,7.2,US,1744775164
397,geraldton,-28.7667,114.6,27.23,44,0,6.17,AU,1744775236
398,kodiak,57.79,-152.4072,3.73,93,100,13.89,US,1744775237
399,howrah,22.5892,88.3103,31.0,66,40,2.06,IN,1744775238
400,thunder bay,48.4001,-89.3168,-1.01,80,0,3.09,CA,1744775239
401,fort bragg,35.139,-79.006,13.78,43,0,2.06,US,1744775240
402,camana,-16.6228,-72.7111,18.57,94,26,3.08,PE,1744775241
403,broken hill,-31.95,141.4333,27.79,27,30,1.86,AU,1744775242
404,morehead city,34.7229,-76.726,17.22,43,0,4.63,US,1744775244
405,newnham,-41.3833,147.1333,18.53,55,20,5.14,AU,1744775245
406,portland,45.5234,-122.6762,17.16,57,28,2.18,US,1744775005
407,vrable,48.2437,18.3085,12.99,90,32,5.52,SK,1744775247
408,bodaybo,57.8506,114.1933,2.32,59,100,4.34,RU,1744775248
409,tshikapa,-6.4167,20.8,22.17,87,100,0.93,CD,1744775249
410,yerofey pavlovich,53.9667,121.9667,2.16,80,100,1.62,RU,1744775251
411,bubaque,11.2833,-15.8333,23.99,71,4,5.24,GW,1744775252
412,severo-yeniseyskiy,60.3725,93.0408,-5.19,87,100,8.27,RU,1744775253
413,kota bharu,6.1333,102.2386,30.53,79,40,1.54,MY,1744775254
414,meadow lakes,61.6247,-149.6011,7.93,50,100,4.12,US,1744775256
415,sidi akkacha,36.4647,1.3026,10.16,79,100,3.78,DZ,1744775258
416,ouargaye,11.5033,0.0572,30.84,42,5,5.62,BF,1744775259
417,malpica,43.3228,-8.8105,7.91,100,85,5.51,ES,1744775260
418,petauke,-14.2426,31.3253,18.28,96,100,1.65,ZM,1744775261
419,chipinge,-20.1883,32.6236,16.84,95,95,1.59,ZW,1744775262
420,conception bay south,47.4999,-52.9981,4.85,95,97,5.34,CA,1744775263
421,nema,57.5067,50.5011,9.38,79,45,6.49,RU,1744775266
422,huilong,31.8111,121.655,24.37,38,100,7.72,CN,1744775267
423,castillos,-34.1667,-53.8333,11.51,91,68,1.58,UY,1744775268
424,tralee,52.2704,-9.7026,2.88,79,91,0.44,IE,1744775269
425,cockburn town,21.4612,-71.1419,25.24,77,100,7.73,TC,1744775270
426,kerikeri,-35.2268,173.9474,19.39,93,100,8.05,NZ,1744775272
427,castanos,26.7833,-101.4167,22.41,58,94,2.21,MX,1744775273
428,liminka,64.8099,25.4155,3.36,70,0,3.6,FI,1744775274
429,remire-montjoly,4.9167,-52.2667,26.02,94,75,2.06,GF,1744775275
430,paramonga,-10.6667,-77.8333,19.05,87,91,3.05,PE,1744775276
431,ad dilam,23.9915,47.1627,21.6,24,0,4.13,SA,1744775277
432,ghanzi,-21.5667,21.7833,18.59,80,18,2.86,BW,1744775279
433,petawawa,45.9001,-77.3328,0.77,76,100,6.17,CA,1744775281
434,port blair,11.6667,92.75,27.02,89,75,2.57,IN,1744775282
435,nelson bay,-32.7167,152.15,20.61,85,99,5.36,AU,1744775283
436,villa juarez,24.6536,-107.5411,30.14,42,100,3.09,MX,1744775286
437,sabang,5.8933,95.3214,27.38,75,100,2.79,ID,1744775287
438,manicore,-5.8092,-61.3003,22.95,99,77,0.78,BR,1744775288
439,hudson,40.7168,-74.0663,10.7,51,100,10.28,US,1744775289
440,olyokminsk,60.3736,120.4264,2.06,82,99,5.63,RU,1744775290
441,maumere,-8.6199,122.2111,30.52,68,28,2.79,ID,1744775292
442,saint-jean-d'angely,45.95,-0.5167,6.41,90,100,1.28,FR,1744775293
443,el nido,11.1858,119.3956,32.3,69,98,4.45,PH,1744775294
444,jakobstad,63.6749,22.7026,3.35,75,97,3.83,FI,1744775295
445,khonsa,27.0167,95.5667,28.2,48,24,1.97,IN,1744775296
446,jiazi,22.8779,116.067,24.23,67,100,4.55,CN,1744775297
447,mangrol,21.1167,70.1167,28.32,66,0,5.84,IN,1744775299
448,idri,27.5,13.2667,22.47,16,98,3.38,LY,1744775300
449,kafir qala,34.6667,61.0667,21.63,43,0,3.21,AF,1744775301
450,alofi,-19.0595,-169.9187,26.94,78,40,6.69,NU,1744775302
451,gurmatkal,16.8667,77.4,30.14,44,64,6.91,IN,1744775303
452,gwadar,25.1216,62.3254,27.74,76,79,4.37,PK,1744775304
453,nanao,37.05,136.9667,12.39,67,6,8.63,JP,1744775306
454,zalingei,12.9096,23.4741,21.37,14,9,2.39,SD,1744775307
455,hankasalmi,62.3833,26.4333,3.6,82,85,2.25,FI,1744775308
456,ceerigaabo,10.6162,47.368,17.69,83,34,1.88,SO,1744775309
457,argo,37.6333,22.7333,13.89,77,54,1.1,GR,1744775310
458,quepos,9.4236,-84.1652,26.98,81,20,1.69,CR,1744775311
459,okha,53.5739,142.9478,0.69,98,100,2.56,RU,1744775312
460,goulburn,-34.75,149.7167,19.84,37,95,3.14,AU,1744775314
461,altay,47.8667,88.1167,10.65,37,0,1.69,CN,1744775315
462,suoyarvi,62.0833,32.35,2.92,86,92,1.96,RU,1744775316
463,bechar,31.6167,-2.2167,14.18,38,40,11.83,DZ,1744775317
464,xilin hot,43.9667,116.0333,19.58,27,99,5.3,CN,1744775318
465,klyuchi,52.2667,79.1667,8.81,67,11,3.95,RU,1744775319
466,toliara,-23.35,43.6667,24.77,84,8,3.21,MG,1744775321
467,bongaigaon,26.4782,90.5568,32.41,32,0,1.81,IN,1744775322
468,masterton,-40.9597,175.6575,14.06,69,100,4.38,NZ,1744775323
469,elko,41.0002,-115.5012,14.57,23,52,2.68,US,1744775324
470,kone,-21.0595,164.8658,26.6,68,49,4.3,NC,1744775325
471,gongzhuling,43.5008,124.8198,15.36,35,80,3.8,CN,1744775326
472,berdigestyakh,62.0989,126.6992,-1.57,76,100,3.6,RU,1744775327
473,damghan,36.1683,54.348,15.44,51,2,4.12,IR,1744775330
474,mulchen,-37.7167,-72.2333,7.38,93,61,1.26,CL,1744775331
475,amga,60.8953,131.9608,-1.18,76,85,0.95,RU,1744775332
476,kill devil hills,36.0307,-75.676,16.1,34,0,5.14,US,1744775333
477,gaillimh,53.2719,-9.0489,4.83,72,100,3.95,IE,1744775335
478,nyurba,63.2842,118.3319,-1.54,82,100,5.34,RU,1744775336
479,taoudenni,22.6783,-3.9836,23.32,18,0,3.99,ML,1744775337
480,t'ongch'on-up,38.9539,127.8917,16.11,50,67,1.63,KP,1744775338
481,battagram,34.6772,73.0233,26.77,35,33,1.54,PK,1744775339
482,sisimiut,66.9395,-53.6735,-6.98,69,100,3.0,GL,1744775340
483,vadso,70.0744,29.7487,-2.91,80,0,2.57,NO,1744775341
484,launceston,-41.45,147.1667,18.8,55,20,5.14,AU,1744775343
485,santa teresa,10.2341,-66.6631,22.14,93,32,0.63,VE,1744775344
486,sosnogorsk,63.6023,53.8817,-2.19,81,100,5.36,RU,1744775345
487,rosetta,31.4044,30.4164,13.63,65,28,3.78,EG,1744775346
488,rapar,23.5667,70.6333,31.08,42,0,5.26,IN,1744775347
489,bu'aale,1.0833,42.5833,26.75,79,96,1.6,SO,1744775348
490,guerrero,17.6667,-100.0,18.91,53,10,3.74,MX,1744775349
491,oliena,40.2723,9.403,11.88,89,73,1.57,IT,1744775351
492,guiuan,11.0333,125.7247,28.87,70,100,7.12,PH,1744775352
493,north battleford,52.7834,-108.2847,11.05,40,75,5.66,CA,1744775353
494,mar'yinka,47.9453,37.5054,11.3,56,59,2.98,UA,1744775354
495,mastic beach,40.7668,-72.8521,11.14,64,40,8.23,US,1744775357
496,raymondville,26.4815,-97.7831,22.05,81,9,3.77,US,1744775358
497,sompeta,18.9333,84.6,29.81,54,31,3.64,IN,1744775359
498,fortuna,40.5982,-124.1573,10.75,94,100,3.6,US,1744775360
499,urzhar,47.093,81.6294,8.66,88,93,1.99,KZ,1744775361
500,khotyn,48.4833,26.5,8.97,73,97,5.95,UA,1744775362
501,pemba,-12.974,40.5178,25.39,100,20,3.6,MZ,1744775363
502,muynoq,43.7683,59.0214,12.08,46,97,10.94,UZ,1744775366
503,chapeco,-27.0964,-52.6183,18.86,100,0,1.54,BR,1744775367
504,weining,26.85,104.2333,18.8,56,99,2.86,CN,1744775368
505,volzhskiy,48.7858,44.7797,12.58,47,100,0.97,RU,1744775369
506,treasure island,27.7692,-82.769,22.32,80,20,3.09,US,1744775370
507,taghazout,30.5426,-9.7112,15.4,67,11,3.98,MA,1744775372
508,fort st. john,56.2499,-120.8529,4.94,36,75,5.66,CA,1744775091
509,vilhena,-12.7406,-60.1458,21.27,98,100,0.98,BR,1744775374
510,kefamenanu,-9.4467,124.4781,29.8,65,40,1.55,ID,1744775375
511,alotau,-10.3069,150.4462,27.58,86,100,2.07,PG,1744775376
512,tororo,0.693,34.1809,17.61,90,94,0.77,UG,1744775211
513,save,8.0425,2.486,25.29,84,38,2.23,BJ,1744775378
514,amqui,48.4638,-67.4313,0.97,98,100,6.46,CA,1744775380
515,guiping,23.3925,110.0814,31.16,20,100,1.9,CN,1744775381
516,vorkuta,67.5,64.0,-11.69,95,85,3.4,RU,1744775382
517,mersa matruh,31.3525,27.2453,12.11,82,40,1.54,EG,1744775383
518,balykshi,47.0667,51.8667,8.0,61,0,5.0,KZ,1744775384
519,necochea,-38.5473,-58.7368,11.54,88,100,3.36,AR,1744775385
520,dunedin,-45.8742,170.5036,12.49,72,34,7.8,NZ,1744775386
521,ulanhot,46.0833,122.0833,12.7,36,67,4.61,CN,1744775388
522,luwuk,-0.9516,122.7875,27.42,80,97,0.49,ID,1744775389
523,termas de rio hondo,-27.4998,-64.8604,22.22,63,100,1.87,AR,1744775390
524,steinbach,50.1667,8.5667,11.85,91,0,1.54,DE,1744775391
525,belyayevka,51.3974,56.4096,9.13,53,14,2.78,RU,1744775392
526,suvorovskaya,44.1942,42.6539,7.01,97,100,3.18,RU,1744775393
527,eforie sud,44.0229,28.6494,9.65,78,94,4.47,RO,1744775395
528,shalkar,47.8288,59.6258,8.74,50,0,3.94,KZ,1744775396
529,tshabong,-26.05,22.45,17.03,72,0,1.74,BW,1744775397
530,pachino,36.7186,15.0907,16.52,87,86,6.88,IT,1744775398
531,mao,39.8885,4.2658,13.31,88,20,3.6,ES,1744775399
532,kristiansund,63.1115,7.732,9.36,81,100,3.09,NO,1744775400
533,rafsanjan,30.4067,55.9939,28.91,20,0,8.74,IR,1744775401
534,onguday,50.75,86.15,8.12,63,92,1.61,RU,1744775403
535,laayoune,27.1622,-13.2032,16.32,70,0,6.26,EH,1744775404
536,igarka,67.4667,86.5833,-5.16,93,100,9.15,RU,1744775405
537,new norfolk,-42.7826,147.0587,19.4,48,99,0.93,AU,1744775406
538,kapa'a,22.0752,-159.319,26.18,82,20,5.14,US,1744775407
539,cabo san lucas,22.8909,-109.9124,22.74,66,100,7.95,MX,1744775408
540,kudymkar,59.0173,54.656,7.95,75,84,7.18,RU,1744775409
541,soio,-6.1349,12.3689,25.7,93,100,2.19,AO,1744775411
542,oranjemund,-28.55,16.4333,14.31,85,2,3.1,NA,1744775412
543,kavaratti,10.5669,72.642,29.03,70,11,3.38,IN,1744775413
544,maydanshakhr,34.3956,68.8662,18.03,29,71,1.49,AF,1744775414
545,venice,27.0998,-82.4543,22.21,77,20,2.68,US,1744775415
546,swedru,5.5371,-0.6998,24.41,93,100,1.95,GH,1744775416
547,prince rupert,54.3161,-130.3201,7.05,76,0,6.69,CA,1744775417
548,sao vicente,-23.9631,-46.3919,22.78,83,100,1.84,BR,1744775419
549,yatou,37.15,122.3833,19.65,48,100,8.33,CN,1744775420
550,bay city,43.5945,-83.8889,2.28,74,100,8.75,US,1744775422
551,santiago de cao,-7.9589,-79.2392,17.07,88,40,4.63,PE,1744775423
552,lobujya,27.95,86.8167,-3.27,54,72,1.12,NP,1744775424
553,tateyama,34.9833,139.8667,16.96,48,20,9.26,JP,1744775426
554,sadalgi,16.5667,74.55,31.57,24,23,2.78,IN,1744775427
555,ulsteinvik,62.3432,5.8487,9.62,90,100,0.45,NO,1744775428
556,puerto carreno,6.189,-67.4859,29.99,58,0,1.03,CO,1744775429
557,newton aycliffe,54.6184,-1.5719,7.66,86,75,5.14,GB,1744775430
558,vorgashor,67.5833,63.95,-12.35,96,83,3.23,RU,1744775431
559,kuala tungkal,-0.8167,103.4667,30.82,64,68,1.68,ID,1744775432
560,manado,1.487,124.8455,27.43,89,40,0.51,ID,1744775434
561,jijiga,9.35,42.8,19.05,80,42,2.47,ET,1744775435
562,big stone gap,36.8677,-82.7745,8.41,65,33,2.62,US,1744775436
563,umm kaddadah,13.6017,26.6876,19.76,13,10,6.24,SD,1744775437
564,oroqen zizhiqi,50.5667,123.7167,10.45,30,96,1.73,CN,1744775438
565,lincoln city,44.9582,-124.0179,11.31,91,50,6.71,US,1744775439
566,jackson,42.4165,-122.8345,20.93,32,0,4.63,US,1744775440
567,kabinda,-6.1333,24.4833,19.47,95,98,0.45,CD,1744775442
568,inyonga,-6.7167,32.0667,17.24,94,93,1.51,TZ,1744775444
569,bogotol,56.2078,89.5342,1.46,58,74,3.72,RU,1744775445
570,ciudad lazaro cardenas,17.9583,-102.2,22.75,75,59,1.27,MX,1744775446
571,walvis bay,-22.9575,14.5053,13.53,94,23,5.14,NA,1744775449
572,botro,7.8525,-5.3106,23.32,92,62,1.32,CI,1744775450
573,turpan,42.9333,89.1667,23.74,19,100,1.94,CN,1744775451
574,tidjikja,18.5564,-11.4271,23.69,24,19,6.91,MR,1744775452
575,buta,2.7858,24.73,21.32,92,100,0.88,CD,1744775453
576,rio grande,-32.035,-52.0986,17.87,88,43,2.15,BR,1744775454
577,lethem,3.3803,-59.7968,27.26,67,28,5.47,GY,1744775456
578,karangampel,-6.4622,108.4519,31.47,67,28,3.85,ID,1744775457
579,chui,-33.6971,-53.4616,13.39,87,42,1.43,UY,1744775458
580,west milford,41.1312,-74.3674,8.03,53,28,6.08,US,1744775459
581,ribadesella,43.4614,-5.0596,7.23,77,15,3.65,ES,1744775461
582,al burayqah,30.4062,19.5739,20.09,25,10,7.97,LY,1744775462
583,santa maria,-29.6842,-53.8069,16.61,94,0,1.54,BR,1744775464
584,mostaganem,35.9311,0.0892,12.17,67,62,8.32,DZ,1744775465
585,balqash,46.8481,74.995,8.33,87,40,5.0,KZ,1744775466
586,pointe-noire,-4.7761,11.8635,25.56,92,100,2.02,CG,1744775467
587,pinahat,26.8839,78.3781,34.55,21,0,3.7,IN,1744775468
588,afaahiti,-17.75,-149.2833,27.02,79,100,5.29,PF,1744775469
589,kitimat,54.0524,-128.6534,3.96,81,62,1.0,CA,1744775470
590,morondava,-20.2833,44.2833,25.58,81,0,2.04,MG,1744775472
591,mata-utu,-13.2816,-176.1745,28.46,77,91,4.68,WF,1744775473
592,victorica,-36.2151,-65.4359,12.35,55,26,2.54,AR,1744775474
593,penzance,50.1186,-5.5371,6.38,79,100,10.23,GB,1744775475
594,la ronge,55.1001,-105.2842,10.14,34,75,4.12,CA,1744775476
595,caleta de carquin,-11.0925,-77.6267,19.39,84,92,3.57,PE,1744775477
596,primorsko-akhtarsk,46.0497,38.1747,11.02,70,96,5.53,RU,1744775478
597,crucecita,-28.95,-58.9833,16.78,77,0,2.75,AR,1744775480
598,lazaro cardenas,17.9583,-102.2,22.75,75,59,1.27,MX,1744775481
599,minas de marcona,-15.2119,-75.1103,13.37,90,89,6.34,PE,1744775482
600,smara,26.7384,-11.6719,14.76,75,3,5.56,EH,1744775483
